{"scooters": [{"uuid": "ff9bb528-cf14-11ec-9d64-0242ac120002", "name": "TGN-S0001", "longitude": 41.132093087476754, "latitude": 1.2445664179123956, "battery_level": 100.0, "km_use": 0.0, "date_last_maintenance": "2022-05-08T21:25:40Z", "state": "ACTIVE", "on_rent": false}, {"uuid": "cabdbd82-cf15-11ec-9d64-0242ac120002", "name": "TGN-S0002", "longitude": 41.132093087476754, "latitude": 1.2445664179123956, "battery_level": 100.0, "km_use": 0.0, "date_last_maintenance": "2022-05-08T21:25:40Z", "state": "ACTIVE", "on_rent": false}, {"uuid": "e2be7f7a-cf15-11ec-9d64-0242ac120002", "name": "TGN-S0003", "longitude": 41.132093087476754, "latitude": 1.2445664179123956, "battery_level": 100.0, "km_use": 0.0, "date_last_maintenance": "2022-05-08T21:25:40Z", "state": "ACTIVE", "on_rent": false}, {"uuid": "08bea5b0-cf16-11ec-9d64-0242ac120002", "name": "TGN-S0004", "longitude": 41.132093087476754, "latitude": 1.2445664179123956, "battery_level": 100.0, "km_use": 0.0, "date_last_maintenance": "2022-05-08T21:25:40Z", "state": "ACTIVE", "on_rent": false}, {"uuid": "155fc6be-cf16-11ec-9d64-0242ac120002", "name": "TGN-S0005", "longitude": 41.132093087476754, "latitude": 1.2445664179123956, "battery_level": 100.0, "km_use": 0.0, "date_last_maintenance": "2022-05-08T21:25:40Z", "state": "ACTIVE", "on_rent": false}, {"uuid": "2afe0630-d0f0-11ec-8b8f-acde48001122", "name": "TGN-S0006", "longitude": 41.132093087476754, "latitude": 1.2445664179123956, "battery_level": 0.0, "km_use": 0.0, "date_last_maintenance": null, "state": "ACTIVE", "on_rent": false}, {"uuid": "2afea1f8-d0f0-11ec-8b8f-acde48001122", "name": "TGN-S0007", "longitude": 41.132093087476754, "latitude": 1.2445664179123956, "battery_level": 0.0, "km_use": 0.0, "date_last_maintenance": null, "state": "ACTIVE", "on_rent": false}, {"uuid": "2afec98a-d0f0-11ec-8b8f-acde48001122", "name": "TGN-S0008", "longitude": 41.132093087476754, "latitude": 1.2445664179123956, "battery_level": 0.0, "km_use": 0.0, "date_last_maintenance": null, "state": "ACTIVE", "on_rent": false}, {"uuid": "2afeeca8-d0f0-11ec-8b8f-acde48001122", "name": "TGN-S0009", "longitude": 41.132093087476754, "latitude": 1.2445664179123956, "battery_level": 0.0, "km_use": 0.0, "date_last_maintenance": null, "state": "ACTIVE", "on_rent": false}, {"uuid": "2aff0b02-d0f0-11ec-8b8f-acde48001122", "name": "TGN-S0010", "longitude": 41.132093087476754, "latitude": 1.2445664179123956, "battery_level": 0.0, "km_use": 0.0, "date_last_maintenance": null, "state": "ACTIVE", "on_rent": false}, {"uuid": "2aff2bf0-d0f0-11ec-8b8f-acde48001122", "name": "TGN-S0011", "longitude": 41.132093087476754, "latitude": 1.2445664179123956, "battery_level": 0.0, "km_use": 0.0, "date_last_maintenance": null, "state": "ACTIVE", "on_rent": false}, {"uuid": "2aff4b1c-d0f0-11ec-8b8f-acde48001122", "name": "TGN-S0012", "longitude": 41.132093087476754, "latitude": 1.2445664179123956, "battery_level": 0.0, "km_use": 0.0, "date_last_maintenance": null, "state": "ACTIVE", "on_rent": false}, {"uuid": "2aff7682-d0f0-11ec-8b8f-acde48001122", "name": "TGN-S0013", "longitude": 41.132093087476754, "latitude": 1.2445664179123956, "battery_level": 0.0, "km_use": 0.0, "date_last_maintenance": null, "state": "ACTIVE", "on_rent": false}, {"uuid": "2aff954a-d0f0-11ec-8b8f-acde48001122", "name": "TGN-S0014", "longitude": 41.132093087476754, "latitude": 1.2445664179123956, "battery_level": 0.0, "km_use": 0.0, "date_last_maintenance": null, "state": "ACTIVE", "on_rent": false}, {"uuid": "2affb156-d0f0-11ec-8b8f-acde48001122", "name": "TGN-S0015", "longitude": 41.132093087476754, "latitude": 1.2445664179123956, "battery_level": 0.0, "km_use": 0.0, "date_last_maintenance": null, "state": "ACTIVE", "on_rent": false}, {"uuid": "2affcc54-d0f0-11ec-8b8f-acde48001122", "name": "TGN-S0016", "longitude": 41.132093087476754, "latitude": 1.2445664179123956, "battery_level": 0.0, "km_use": 0.0, "date_last_maintenance": null, "state": "ACTIVE", "on_rent": false}, {"uuid": "2affe6e4-d0f0-11ec-8b8f-acde48001122", "name": "TGN-S0017", "longitude": 41.132093087476754, "latitude": 1.2445664179123956, "battery_level": 0.0, "km_use": 0.0, "date_last_maintenance": null, "state": "ACTIVE", "on_rent": false}, {"uuid": "2b00057a-d0f0-11ec-8b8f-acde48001122", "name": "TGN-S0018", "longitude": 41.132093087476754, "latitude": 1.2445664179123956, "battery_level": 0.0, "km_use": 0.0, "date_last_maintenance": null, "state": "ACTIVE", "on_rent": false}, {"uuid": "2b002a3c-d0f0-11ec-8b8f-acde48001122", "name": "TGN-S0019", "longitude": 41.132093087476754, "latitude": 1.2445664179123956, "battery_level": 0.0, "km_use": 0.0, "date_last_maintenance": null, "state": "ACTIVE", "on_rent": false}, {"uuid": "2b004594-d0f0-11ec-8b8f-acde48001122", "name": "TGN-S0020", "longitude": 41.132093087476754, "latitude": 1.2445664179123956, "battery_level": 0.0, "km_use": 0.0, "date_last_maintenance": null, "state": "ACTIVE", "on_rent": false}, {"uuid": "2b0060b0-d0f0-11ec-8b8f-acde48001122", "name": "TGN-S0021", "longitude": 41.132093087476754, "latitude": 1.2445664179123956, "battery_level": 0.0, "km_use": 0.0, "date_last_maintenance": null, "state": "ACTIVE", "on_rent": false}, {"uuid": "2b007cbc-d0f0-11ec-8b8f-acde48001122", "name": "TGN-S0022", "longitude": 41.132093087476754, "latitude": 1.2445664179123956, "battery_level": 0.0, "km_use": 0.0, "date_last_maintenance": null, "state": "ACTIVE", "on_rent": false}, {"uuid": "2b0097f6-d0f0-11ec-8b8f-acde48001122", "name": "TGN-S0023", "longitude": 41.132093087476754, "latitude": 1.2445664179123956, "battery_level": 0.0, "km_use": 0.0, "date_last_maintenance": null, "state": "ACTIVE", "on_rent": false}, {"uuid": "2b00b4de-d0f0-11ec-8b8f-acde48001122", "name": "TGN-S0024", "longitude": 41.132093087476754, "latitude": 1.2445664179123956, "battery_level": 0.0, "km_use": 0.0, "date_last_maintenance": null, "state": "ACTIVE", "on_rent": false}, {"uuid": "2b00d27a-d0f0-11ec-8b8f-acde48001122", "name": "TGN-S0025", "longitude": 41.132093087476754, "latitude": 1.2445664179123956, "battery_level": 0.0, "km_use": 0.0, "date_last_maintenance": null, "state": "ACTIVE", "on_rent": false}, {"uuid": "2b00eff8-d0f0-11ec-8b8f-acde48001122", "name": "TGN-S0026", "longitude": 41.132093087476754, "latitude": 1.2445664179123956, "battery_level": 0.0, "km_use": 0.0, "date_last_maintenance": null, "state": "ACTIVE", "on_rent": false}, {"uuid": "2b010eac-d0f0-11ec-8b8f-acde48001122", "name": "TGN-S0027", "longitude": 41.132093087476754, "latitude": 1.2445664179123956, "battery_level": 0.0, "km_use": 0.0, "date_last_maintenance": null, "state": "ACTIVE", "on_rent": false}, {"uuid": "2b012ca2-d0f0-11ec-8b8f-acde48001122", "name": "TGN-S0028", "longitude": 41.132093087476754, "latitude": 1.2445664179123956, "battery_level": 0.0, "km_use": 0.0, "date_last_maintenance": null, "state": "ACTIVE", "on_rent": false}, {"uuid": "2b014a7a-d0f0-11ec-8b8f-acde48001122", "name": "TGN-S0029", "longitude": 41.132093087476754, "latitude": 1.2445664179123956, "battery_level": 0.0, "km_use": 0.0, "date_last_maintenance": null, "state": "ACTIVE", "on_rent": false}, {"uuid": "2b016c30-d0f0-11ec-8b8f-acde48001122", "name": "TGN-S0030", "longitude": 41.132093087476754, "latitude": 1.2445664179123956, "battery_level": 0.0, "km_use": 0.0, "date_last_maintenance": null, "state": "ACTIVE", "on_rent": false}, {"uuid": "2b01894a-d0f0-11ec-8b8f-acde48001122", "name": "TGN-S0031", "longitude": 41.132093087476754, "latitude": 1.2445664179123956, "battery_level": 0.0, "km_use": 0.0, "date_last_maintenance": null, "state": "ACTIVE", "on_rent": false}, {"uuid": "2b01a592-d0f0-11ec-8b8f-acde48001122", "name": "TGN-S0032", "longitude": 41.132093087476754, "latitude": 1.2445664179123956, "battery_level": 0.0, "km_use": 0.0, "date_last_maintenance": null, "state": "ACTIVE", "on_rent": false}, {"uuid": "2b01cc0c-d0f0-11ec-8b8f-acde48001122", "name": "TGN-S0033", "longitude": 41.132093087476754, "latitude": 1.2445664179123956, "battery_level": 0.0, "km_use": 0.0, "date_last_maintenance": null, "state": "ACTIVE", "on_rent": false}, {"uuid": "2b01eb7e-d0f0-11ec-8b8f-acde48001122", "name": "TGN-S0034", "longitude": 41.132093087476754, "latitude": 1.2445664179123956, "battery_level": 0.0, "km_use": 0.0, "date_last_maintenance": null, "state": "ACTIVE", "on_rent": false}, {"uuid": "2b020956-d0f0-11ec-8b8f-acde48001122", "name": "TGN-S0035", "longitude": 41.132093087476754, "latitude": 1.2445664179123956, "battery_level": 0.0, "km_use": 0.0, "date_last_maintenance": null, "state": "ACTIVE", "on_rent": false}]}